Neighbourhood,Neighbourhood Latitude,Neighbourhood Longitude,Venue,Venue Latitude,Venue Longitude,Venue Category
Anders Park,52.2474233,-113.7833343868671,Red Boar Smokery,52.25093066836068,-113.79357141880054,BBQ Joint
Anders Park,52.2474233,-113.7833343868671,Mac's,52.2514602,-113.7734948,Convenience Store
Anders Park,52.2474233,-113.7833343868671,Japanese Delight,52.25189897128495,-113.77299600919058,Japanese Restaurant
Anders Park,52.2474233,-113.7833343868671,Arnz Contracting & Custom Painting,52.255005,-113.775562,Retail
Aspen Ridge,52.2382769,-113.77087407527756,State & Main Kitchen & Bar,52.239262122792205,-113.76830101023393,Restaurant
Aspen Ridge,52.2382769,-113.77087407527756,Save-On-Foods,52.23886496673346,-113.76935274915013,Grocery Store
Aspen Ridge,52.2382769,-113.77087407527756,Tim Hortons,52.23810423694108,-113.76749262213707,Coffee Shop
Aspen Ridge,52.2382769,-113.77087407527756,McDonald's,52.238066958219896,-113.7683362403651,Fast Food Restaurant
Aspen Ridge,52.2382769,-113.77087407527756,Fas Gas,52.2361497691731,-113.77361038911866,Fuel Station
Aspen Ridge,52.2382769,-113.77087407527756,Mac's,52.2381158,-113.7653069,Convenience Store
Bower,52.24037425,-113.81273306719862,Bo's Bar & Grill,52.241371094147595,-113.81484409300184,Pub
Bower,52.24037425,-113.81273306719862,Chapters,52.23932443401373,-113.81501270317266,Bookstore
Bower,52.24037425,-113.81273306719862,Earls,52.23775953148793,-113.81284949033954,New American Restaurant
Bower,52.24037425,-113.81273306719862,Starbucks,52.239885,-113.816809,Coffee Shop
Bower,52.24037425,-113.81273306719862,Second Cup Café,52.2335313,-113.8146333,Café
Bower,52.24037425,-113.81273306719862,Fionn MacCool's Red Deer,52.23406358264258,-113.81299234879569,Irish Pub
Bower,52.24037425,-113.81273306719862,Tony Roma's,52.239641139826844,-113.81893090674589,Steakhouse
Bower,52.24037425,-113.81273306719862,Sobeys,52.23838657735048,-113.81633683104475,Grocery Store
Bower,52.24037425,-113.81273306719862,Starbucks,52.244899,-113.81356,Coffee Shop
Bower,52.24037425,-113.81273306719862,Holiday Inn Express Red Deer,52.24536086066736,-113.81260103076636,Inn
Bower,52.24037425,-113.81273306719862,Tim Hortons,52.23858221204997,-113.81490468978882,Coffee Shop
Bower,52.24037425,-113.81273306719862,Subway,52.24251938,-113.8091354,Sandwich Spot
Bower,52.24037425,-113.81273306719862,H&M,52.24253082,-113.8079071,Clothing Store
Bower,52.24037425,-113.81273306719862,Shoppers Drug Mart (Beauty Boutique by Shoppers Drug Mart),52.242621,-113.809755,Pharmacy
Bower,52.24037425,-113.81273306719862,Montana's,52.23426937293919,-113.81455314976029,Restaurant
Bower,52.24037425,-113.81273306719862,Wok Box,52.238941521246275,-113.81733944181642,Asian Restaurant
Bower,52.24037425,-113.81273306719862,Wendy’s,52.24256628473982,-113.8150571398811,Fast Food Restaurant
Bower,52.24037425,-113.81273306719862,Toad n' Turtle,52.23430908748943,-113.81807734160115,Pub
Bower,52.24037425,-113.81273306719862,Bower Place Shopping Centre,52.2424408173412,-113.80910841202251,Shopping Mall
Bower,52.24037425,-113.81273306719862,Michaels,52.24039354319735,-113.81800156841564,Arts and Crafts Store
Bower,52.24037425,-113.81273306719862,Lowe's,52.2360725,-113.8227005,Hardware Store
Bower,52.24037425,-113.81273306719862,Moxie's Classic Grill,52.247032091879056,-113.81513570757693,New American Restaurant
Bower,52.24037425,-113.81273306719862,"Toys""R""Us",52.243261,-113.8095,Toy Store
Bower,52.24037425,-113.81273306719862,Five Guys,52.23647834211776,-113.81577587273352,Burger Joint
Bower,52.24037425,-113.81273306719862,Dairy Queen,52.234611248836316,-113.81302043795586,Ice Cream Parlor
Bower,52.24037425,-113.81273306719862,London Drugs,52.233886476681846,-113.81649251641012,Pharmacy
Bower,52.24037425,-113.81273306719862,McDonald's,52.24305474369945,-113.81499365548268,Fast Food Restaurant
Bower,52.24037425,-113.81273306719862,Black Knight Inn,52.247236,-113.813522,Hotel
Bower,52.24037425,-113.81273306719862,East Side Mario's Red Deer,52.234989844076615,-113.8146683911973,Restaurant
Bower,52.24037425,-113.81273306719862,A&W,52.233874,-113.814613,Fast Food Restaurant
Bower,52.24037425,-113.81273306719862,Old Navy,52.232404061553225,-113.81647785941766,Clothing Store
Bower,52.24037425,-113.81273306719862,Petland,52.23986852710424,-113.81663461270222,Pet Supplies Store
Bower,52.24037425,-113.81273306719862,Zellers,52.24356284863014,-113.80780041045996,Department Store
Bower,52.24037425,-113.81273306719862,Walmart,52.23592570466968,-113.81798833102305,Big Box Store
Bower,52.24037425,-113.81273306719862,Mark's,52.23494009145807,-113.81936175605132,Clothing Store
Bower,52.24037425,-113.81273306719862,Menchies,52.2342459736896,-113.81789021489146,Ice Cream Parlor
Bower,52.24037425,-113.81273306719862,Alberta Motor Association - AMA,52.24773794312024,-113.80970924327954,Automotive Repair Shop
Bower,52.24037425,-113.81273306719862,Days Inn Red Deer,52.233411,-113.81965776,Inn
Bower Ponds Recreation Area,52.2688,-113.8314,Bower Ponds,52.268584299866134,-113.83184548792215,Other Great Outdoors
Bower Ponds Recreation Area,52.2688,-113.8314,Starbucks,52.27214,-113.829058,Coffee Shop
Bower Ponds Recreation Area,52.2688,-113.8314,Famoso Neapolitan Pizzeria,52.26912908525835,-113.81872415542603,Pizzeria
Bower Ponds Recreation Area,52.2688,-113.8314,Carnival Cinemas,52.266919674801755,-113.82189444223337,Indie Movie Theater
Bower Ponds Recreation Area,52.2688,-113.8314,Real Canadian Superstore,52.270165,-113.81726,Grocery Store
Bower Ponds Recreation Area,52.2688,-113.8314,One Eleven Grill,52.26171349891018,-113.82290779556317,American Restaurant
Bower Ponds Recreation Area,52.2688,-113.8314,McDonald's,52.26769530237264,-113.81800310561232,Fast Food Restaurant
Bower Ponds Recreation Area,52.2688,-113.8314,Joey's Seafood Restaurants,52.26200865817992,-113.82554241828132,Seafood Restaurant
Bower Ponds Recreation Area,52.2688,-113.8314,The Vat Pub,52.26189206958914,-113.82312216717656,Dive Bar
Central Park,50.02954255,-110.68186132462576,Swirls,50.035248418281526,-110.68718869373049,Ice Cream Parlor
Central Park,50.02954255,-110.68186132462576,Dayzoff Pub,50.03325038872706,-110.66964373396843,Pub
Central Park,50.02954255,-110.68186132462576,Starbucks,50.03287446431124,-110.68590175616777,Coffee Shop
Central Park,50.02954255,-110.68186132462576,Dairy Queen,50.03792016829772,-110.68012520670891,Ice Cream Parlor
Central Park,50.02954255,-110.68186132462576,Safeway Canada,50.03275792340472,-110.68554493974418,Supermarket
Central Park,50.02954255,-110.68186132462576,Hat News & Tobacco,50.032064,-110.68504,Smoke Shop
Central Park,50.02954255,-110.68186132462576,Zelmore Automotive,50.03555379611932,-110.68700005844391,Electronics Store
Central Park,50.02954255,-110.68186132462576,The Chocolate Shoppe,50.036291474729246,-110.6769844566381,American Restaurant
Central Park,50.02954255,-110.68186132462576,Kin Coulee Park,50.021990913445755,-110.6856731096289,Park
Central Park,50.02954255,-110.68186132462576,Sports Connection Source For Sports,50.03040130653863,-110.66871693357824,Sporting Goods Retail
Central Park,50.02954255,-110.68186132462576,Mario's,50.03760233712857,-110.67635108506202,Italian Restaurant
Central Park,50.02954255,-110.68186132462576,Memory Lane Computers,50.02638261428571,-110.66890908,Electronics Store
Clearview Ridge,47.5298986,-52.8744254,Tim Hortons,47.53578220378429,-52.86802626827771,Coffee Shop
Clearview Ridge,47.5298986,-52.8744254,Tim Hortons,47.529111640687084,-52.88118839263916,Coffee Shop
Clearview Ridge,47.5298986,-52.8744254,Rotary Paradise Youth and Community Centre,47.52394459389816,-52.869180583677256,Structure
Clearview Ridge,47.5298986,-52.8744254,Paradise Bakery,47.535986671022556,-52.86849860902118,Bakery
College Park,55.1710619,-118.81116834887015,Muskoseepi Park,55.173579934107984,-118.8061700506783,Park
College Park,55.1710619,-118.81116834887015,Madhatters,55.17095397729856,-118.81181206483011,Cocktail Bar
College Park,55.1710619,-118.81116834887015,Tokyo Ichiban,55.17444213774321,-118.82351244000293,Japanese Restaurant
College Park,55.1710619,-118.81116834887015,Canadian Brew House,55.173543,-118.822787,Sports Bar
College Park,55.1710619,-118.81116834887015,Holiday Inn Hotel & Suites,55.169656852576985,-118.8188930269489,Hotel
College Park,55.1710619,-118.81116834887015,Wok Box,55.17356575994887,-118.82396391789811,Asian Restaurant
College Park,55.1710619,-118.81116834887015,Petro-Canada Gas Station & Petro-Pass Truck Stop,55.171343,-118.813515,Fuel Station
College Park,55.1710619,-118.81116834887015,Tim Hortons,55.17098687776313,-118.81015956401825,Coffee Shop
College Park,55.1710619,-118.81116834887015,Winners,55.173952627829536,-118.82423077987076,Department Store
College Park,55.1710619,-118.81116834887015,London Drugs,55.1743729447075,-118.82212608465576,Pharmacy
College Park,55.1710619,-118.81116834887015,better than freds,55.16996846268709,-118.79721372746138,Gastropub
College Park,55.1710619,-118.81116834887015,Staples,55.1719207763671,-118.821449279785,Office Supply Store
College Park,55.1710619,-118.81116834887015,Cineplex Cinemas,55.17297231954643,-118.82339633331354,Movie Theater
College Park,55.1710619,-118.81116834887015,Starbucks,55.171225,-118.824999,Coffee Shop
College Park,55.1710619,-118.81116834887015,The Keg Steakhouse + Bar - Grande Prairie,55.17086297161159,-118.81345583132622,Restaurant
College Park,55.1710619,-118.81116834887015,Save-On-Foods,55.17507589029791,-118.82216352230898,Grocery Store
College Park,55.1710619,-118.81116834887015,Burger King,55.17124893187924,-118.82377173007626,Fast Food Restaurant
College Park,55.1710619,-118.81116834887015,Michaels,55.17415010131939,-118.82523357868195,Arts and Crafts Store
College Park,55.1710619,-118.81116834887015,SUBWAY,55.169986,-118.796225,Sandwich Spot
College Park,55.1710619,-118.81116834887015,Grande Prairie Farmers Market,55.171748218911695,-118.79739761352539,Flea Market
College Park,55.1710619,-118.81116834887015,Subway,55.17628656797816,-118.822769708936,Sandwich Spot
College Park,55.1710619,-118.81116834887015,Crystal Centre,55.16917800628616,-118.79577214820719,Hockey Stadium
College Park,55.1710619,-118.81116834887015,Podollan Inn & Spa,55.169565,-118.817643,Inn
College Park,55.1710619,-118.81116834887015,Dollarama,55.172953,-118.821649,Discount Store
College Park,55.1710619,-118.81116834887015,Quiznos,55.17655757175623,-118.82157012127502,Sandwich Spot
College Park,55.1710619,-118.81116834887015,Fatburger,55.17587102678654,-118.82278215765984,Burger Joint
College Park,55.1710619,-118.81116834887015,Husky,55.170098092715634,-118.82570569823889,Fuel Station
College Park,55.1710619,-118.81116834887015,RONA Grande Prairie,55.1722153,-118.8256644,Hardware Store
College Park,55.1710619,-118.81116834887015,Fabricland,55.17643,-118.822594,Arts and Crafts Store
College Park,55.1710619,-118.81116834887015,JYSK,55.1744565,-118.8251665,Furniture and Home Store
Davenport,53.5522749,-113.2585866,7-Eleven,53.5512703,-113.2680143,Convenience Store
Davenport,53.5522749,-113.2585866,Press'd,53.552811,-113.248449,Sandwich Spot
Davenport,53.5522749,-113.2585866,Sherwood Trail,53.55874653353311,-113.25567493548124,Hiking Trail
Davenport,53.5522749,-113.2585866,Cloverbar Northbound,53.54827247969636,-113.26880230242377,Hiking Trail
Davenport,53.5522749,-113.2585866,H21 Restaurant & Lounge,53.550783,-113.246486,Restaurant
Davenport,53.5522749,-113.2585866,Liquor Depot,53.549861907958984,-113.27103424072266,Liquor Store
Davenport,53.5522749,-113.2585866,Field Of Dreams,53.557376,-113.246952,Art Gallery
Devonshire,53.4488638,-113.56682236102054,Famoso Neapolitan Pizzeria,53.453027931503655,-113.56274602429654,Pizzeria
Devonshire,53.4488638,-113.56682236102054,Save-On-Foods,53.45265977776168,-113.56435406745913,Grocery Store
Devonshire,53.4488638,-113.56682236102054,Remedy Cafe,53.445009262837026,-113.57765318541921,Café
Devonshire,53.4488638,-113.56682236102054,Original Joe's (Original Joe's Restaurant & Bar),53.455331692674,-113.56360017082741,Restaurant
Devonshire,53.4488638,-113.56682236102054,Delux Burger Bar,53.452817329908164,-113.56210583044727,Burger Joint
Devonshire,53.4488638,-113.56682236102054,Subway,53.45329666,-113.5684967,Sandwich Spot
Devonshire,53.4488638,-113.56682236102054,Petro-Canada,53.453512,-113.569028,Fuel Station
Devonshire,53.4488638,-113.56682236102054,Hart's Table & Bar,53.45347830239514,-113.5671327492717,Comfort Food Restaurant
Devonshire,53.4488638,-113.56682236102054,KFC Taco Bell (KFC),53.453941,-113.566832,Fast Food Restaurant
Devonshire,53.4488638,-113.56682236102054,Dairy Queen,53.45359499797872,-113.56316931926358,Ice Cream Parlor
Devonshire,53.4488638,-113.56682236102054,Shell,53.45455956219907,-113.56245297830844,Fuel Station
Devonshire,53.4488638,-113.56682236102054,Esso,53.45470739245451,-113.56651685699765,Fuel Station
Devonshire,53.4488638,-113.56682236102054,Tim Hortons,53.45452501671118,-113.564458116889,Coffee Shop
Devonshire,53.4488638,-113.56682236102054,Starbucks,53.453719,-113.567532,Coffee Shop
Devonshire,53.4488638,-113.56682236102054,Liquor Depot,53.45354500669838,-113.56457713375906,Liquor Store
Devonshire,53.4488638,-113.56682236102054,Taco Bell,53.45371628,-113.5683594,Restaurant
Devonshire,53.4488638,-113.56682236102054,Tokyo Express,53.45519217817056,-113.56446561201302,Japanese Restaurant
Devonshire,53.4488638,-113.56682236102054,Mac's,53.445126,-113.578131,Miscellaneous Store
Downtown,53.5414274,-113.500434,Remedy Cafe,53.540782923628115,-113.49740498074345,Café
Downtown,53.5414274,-113.500434,Corso 32,53.54094890526599,-113.49875156315315,Italian Restaurant
Downtown,53.5414274,-113.500434,The Cask & Barrel,53.54055250351425,-113.49932837728412,Whisky Bar
Downtown,53.5414274,-113.500434,Khazana Restaurant,53.542735468061984,-113.50425082076549,Indian Restaurant
Downtown,53.5414274,-113.500434,The Old Spaghetti Factory,53.54355467775372,-113.49754943416583,Italian Restaurant
Downtown,53.5414274,-113.500434,Sabor Divino,53.543151995499194,-113.49752832442137,Restaurant
Downtown,53.5414274,-113.500434,DeVine Wines,53.54105714544119,-113.49929935015028,Wine Store
Downtown,53.5414274,-113.500434,Tzin,53.54133741557251,-113.49914935447478,Tapas Restaurant
Downtown,53.5414274,-113.500434,Uccellino,53.540819,-113.498693,Italian Restaurant
Downtown,53.5414274,-113.500434,Y Afterhours,53.53961195977678,-113.49584963570453,Night Club
Downtown,53.5414274,-113.500434,Credo Coffee,53.541737731366624,-113.4989804307515,Coffee Shop
Downtown,53.5414274,-113.500434,Drift Mobile Eatery,53.541996015280965,-113.49846505077028,Food Truck
Downtown,53.5414274,-113.500434,Evolution Wonderlounge,53.54313067759274,-113.49761446779198,Gay Bar
Downtown,53.5414274,-113.500434,LUX Steakhouse + Bar,53.54172805627135,-113.49405542794989,Steakhouse
Downtown,53.5414274,-113.500434,The Marc,53.538354768209395,-113.50301693269388,French Restaurant
Downtown,53.5414274,-113.500434,Coffee Bureau,53.54088202486885,-113.50147274519168,Café
Downtown,53.5414274,-113.500434,Rocky Mountain Icehouse,53.540956204374794,-113.50161181943265,Gastropub
Downtown,53.5414274,-113.500434,Bistro Praha,53.541129653783955,-113.4938772854905,Eastern European Restaurant
Downtown,53.5414274,-113.500434,I Love Sushi,53.54148640716539,-113.50091585378533,Sushi Restaurant
Downtown,53.5414274,-113.500434,Bower,53.5410368518301,-113.50210866629502,Night Club
Downtown,53.5414274,-113.500434,Love Pizza,53.5416045587401,-113.50883652611297,Pizzeria
Downtown,53.5414274,-113.500434,JOEY Bell Tower,53.544913366206735,-113.49374647698635,New American Restaurant
Downtown,53.5414274,-113.500434,Audreys Books,53.54101542111579,-113.50490292352364,Bookstore
Downtown,53.5414274,-113.500434,The Common,53.53763503776285,-113.50857049590414,Night Club
Downtown,53.5414274,-113.500434,De Dutch,53.54100632188424,-113.49165369397704,Breakfast Spot
Downtown,53.5414274,-113.500434,Woodwork,53.541991128122625,-113.49058695923631,BBQ Joint
Downtown,53.5414274,-113.500434,Kyoto Japanese Cuisine,53.54116949229921,-113.50940302018427,Japanese Restaurant
Downtown,53.5414274,-113.500434,District Coffee Co,53.538902800233345,-113.50825685139343,Café
Downtown,53.5414274,-113.500434,Matrix Hotel,53.53905588938105,-113.5049717627898,Hotel
Downtown,53.5414274,-113.500434,Evoolution Olive & Specialty Oils & Vinegars,53.54143933460134,-113.4989433907987,Miscellaneous Store
Downtown,53.5414274,-113.500434,The Underground Tap & Grill,53.541330128333634,-113.49029470278556,Bar
Downtown,53.5414274,-113.500434,Sofra,53.54560758762166,-113.50261956866164,Turkish Restaurant
Downtown,53.5414274,-113.500434,Sir Winston Churchill Square,53.54388502544053,-113.4901632283987,Plaza
Downtown,53.5414274,-113.500434,Fairmont Hotel Macdonald,53.540354048003245,-113.48963140736875,Hotel
Downtown,53.5414274,-113.500434,Cavern,53.54243037629711,-113.49904077945115,Cheese Store
Downtown,53.5414274,-113.500434,Starbucks,53.53918,-113.504204,Coffee Shop
Downtown,53.5414274,-113.500434,Sherlock Holmes Pub,53.5422988175184,-113.49143800101929,Pub
Downtown,53.5414274,-113.500434,Chicken for Lunch,53.5416196652816,-113.49322176707038,Chinese Restaurant
Downtown,53.5414274,-113.500434,The Creperie,53.54357402338591,-113.49762566223269,Creperie
Downtown,53.5414274,-113.500434,Legislature Grounds,53.53461410748498,-113.50607142126866,Park
Downtown,53.5414274,-113.500434,Sunterra Market,53.54199489721182,-113.49441473494342,Food and Beverage Retail
Downtown,53.5414274,-113.500434,Rogers Place,53.54698,-113.497717,Hockey Stadium
Downtown,53.5414274,-113.500434,Edmonton's Outdoor Neon Sign Museum,53.54602575064421,-113.49955186530607,Museum
Downtown,53.5414274,-113.500434,The Citadel Theatre,53.54324688449243,-113.48833302847126,Concert Hall
Downtown,53.5414274,-113.500434,Ruth's Chris Steak House,53.54145260884356,-113.48994970321655,Steakhouse
Downtown,53.5414274,-113.500434,Craft Beer Market,53.5421792024835,-113.49133627155503,Pub
Downtown,53.5414274,-113.500434,Pampa Brazilian Steakhouse,53.53796436566414,-113.50828835970052,Brazilian Restaurant
Downtown,53.5414274,-113.500434,Delta Hotels by Marriott Edmonton Centre Suites,53.5438396,-113.4958168,Hotel
Downtown,53.5414274,-113.500434,Francis Winspear Centre,53.544001768435486,-113.48778933438325,Concert Hall
Downtown,53.5414274,-113.500434,Japanese Village,53.544000780894024,-113.49945961937706,Asian Restaurant
Downtown,53.5414274,-113.500434,Transcend Coffee,53.54600689066019,-113.49905483832785,Coffee Shop
Downtown,53.5414274,-113.500434,Zuppa Cafe,53.53705929330614,-113.5098471391638,Breakfast Spot
Downtown,53.5414274,-113.500434,Wildflower Grill,53.539357324801216,-113.50462953204085,Restaurant
Downtown,53.5414274,-113.500434,Mikado,53.54573419816865,-113.5090962806086,Sushi Restaurant
Downtown,53.5414274,-113.500434,Central Social Hall,53.54085683199365,-113.50889201136073,Bar
Downtown,53.5414274,-113.500434,Indian Fusion - The Curry House,53.545424,-113.512693,Indian Restaurant
Downtown,53.5414274,-113.500434,The Parlour,53.54536467492016,-113.50691628317007,Italian Restaurant
Downtown,53.5414274,-113.500434,Marble Slab Creamery,53.54143587601562,-113.50985888291379,Ice Cream Parlor
Downtown,53.5414274,-113.500434,Cactus Club Cafe,53.541041370475526,-113.51311702518768,Bar
Downtown,53.5414274,-113.500434,Kelly's Pub,53.54223011981734,-113.49879547199069,Pub
Downtown,53.5414274,-113.500434,T.H.I.S Fruit Cafe,53.54551124686855,-113.5011209047819,Coffee Shop
Downtown,53.5414274,-113.500434,Louisiana Purchase,53.54521799739609,-113.51268819731226,Cajun and Creole Restaurant
Downtown,53.5414274,-113.500434,Normand's Bistro,53.542918,-113.488878,French Restaurant
Downtown,53.5414274,-113.500434,Boston Pizza,53.545605256126024,-113.49480986595152,Pizzeria
Downtown,53.5414274,-113.500434,JW Marriott Edmonton ICE District,53.5459298,-113.4959762,Hotel
Downtown,53.5414274,-113.500434,Shoppers Drug Mart,53.540571,-113.499946,Pharmacy
Downtown,53.5414274,-113.500434,Die Pie,53.540783,-113.51438,Vegan and Vegetarian Restaurant
Downtown,53.5414274,-113.500434,The Pint Public House,53.54165396829774,-113.50821374127393,Sports Bar
Downtown,53.5414274,-113.500434,Starbucks,53.541754,-113.494757,Coffee Shop
Downtown,53.5414274,-113.500434,Coast Edmonton Plaza Hotel (Coast Edmonton Plaza Hotel by APA),53.54217576848977,-113.500990879422,Hotel
Downtown,53.5414274,-113.500434,Landmark Theatres,53.54359794221303,-113.49458486365208,Movie Theater
Downtown,53.5414274,-113.500434,Baijiu,53.54592123134112,-113.49908741015577,Bar
Downtown,53.5414274,-113.500434,LaRonde Restaurant - Chateau Lacombe,53.53926154306514,-113.49404976360684,French Restaurant
Downtown,53.5414274,-113.500434,Harvey's,53.54581644370733,-113.5089481932888,Restaurant
Downtown,53.5414274,-113.500434,Brixx Bar & Grill,53.53982175467007,-113.49599599965352,Rock Club
Downtown,53.5414274,-113.500434,SUBWAY,53.543193006800465,-113.49769246547316,Sandwich Spot
Downtown,53.5414274,-113.500434,The Commodore,53.54098325554542,-113.50538472315523,Diner
Downtown,53.5414274,-113.500434,Save-On-Foods,53.5426951,-113.5087366,Supermarket
Downtown,53.5414274,-113.500434,Sicilian Pasta Kitchen,53.54092075680392,-113.51531073755784,Italian Restaurant
Downtown,53.5414274,-113.500434,New Tan Tan Restaurant,53.5428996062331,-113.48581530685958,Chinese Restaurant
Downtown,53.5414274,-113.500434,Fionn MacCool's,53.543398039210025,-113.49559106662419,Irish Pub
Downtown,53.5414274,-113.500434,Best Buy,53.545101636866505,-113.50971221923828,Electronics Store
Downtown,53.5414274,-113.500434,The Lingnan,53.54954173860989,-113.4996271679795,Chinese Restaurant
Downtown,53.5414274,-113.500434,Hoang Long,53.540207991649176,-113.50853487802456,Vietnamese Restaurant
Downtown,53.5414274,-113.500434,Second Cup Café,53.5404151,-113.4910089,Café
Downtown,53.5414274,-113.500434,City Centre Place,53.54382752119855,-113.49283312427293,Shopping Mall
Downtown,53.5414274,-113.500434,Second Cup,53.542985095483225,-113.49550724029541,Coffee Shop
Downtown,53.5414274,-113.500434,Holt Renfrew,53.542964578067405,-113.49472002459127,Clothing Store
Downtown,53.5414274,-113.500434,MRKT,53.54095722922541,-113.50220562561299,Sandwich Spot
Downtown,53.5414274,-113.500434,Zenari's,53.542718032394184,-113.49505117217551,Café
Downtown,53.5414274,-113.500434,Wok Box,53.54092188103267,-113.49492447788208,Asian Restaurant
Downtown,53.5414274,-113.500434,Subway,53.54097213274157,-113.50108586182242,Sandwich Spot
Downtown,53.5414274,-113.500434,Art Gallery of Alberta,53.54469498776126,-113.4891963632172,Art Gallery
Downtown,53.5414274,-113.500434,V Sandwiches,53.541572169307194,-113.4923924940416,Vietnamese Restaurant
Downtown,53.5414274,-113.500434,Haweli,53.54340612052297,-113.49745935843717,Indian Restaurant
Downtown,53.5414274,-113.500434,Press'd The Sandwich Company,53.54115601962296,-113.51475556349142,Sandwich Spot
Downtown,53.5414274,-113.500434,Royal Alberta Museum,53.54684181838687,-113.4905109806466,Museum
Downtown,53.5414274,-113.500434,Metro Billiards,53.544343501845624,-113.50333051848554,Pool Hall
Downtown,53.5414274,-113.500434,Rose and Crown,53.54563881624025,-113.493329406079,Pub
Downtown,53.5414274,-113.500434,Comfort Inn & Suites,53.538493469599764,-113.5006020963192,Hotel
Edgar Industrial Park,52.30896485,-113.84309114313756,Petro-pass,52.31439922397303,-113.83985317743831,Fuel Station
Edgar Industrial Park,52.30896485,-113.84309114313756,Legacy Roofing Ltd,52.307918,-113.8524,Home Service
Edgar Industrial Park,52.30896485,-113.84309114313756,UFA Cardlock Edgar,52.31539894855475,-113.83900024485195,Fuel Station
Edgar Industrial Park,52.30896485,-113.84309114313756,Buster Pizza,52.301702,-113.840307,Pizzeria
Evergreen,53.6323394,-113.350682,Evergreen Super Market,53.629238,-113.35282,Fuel Station
Evergreen,53.6323394,-113.350682,Brenneis Greenhouses,53.6286851797228,-113.35383294049508,Garden Center
Evergreen,53.6323394,-113.350682,Kuhlmann's Flower Shop,53.6298928,-113.3605587,Flower Store
Evergreen,53.6323394,-113.350682,Kuhlmann's Marketgardens and Greenhouse,53.628964,-113.36035,Garden Center
Evergreen,53.6323394,-113.350682,Kuhlmanns,53.62915312,-113.360647,Garden Center
Gaetz Lakes Sanctuary,52.2849,-113.7954,SportChek,52.286740675787016,-113.80921035931712,Sporting Goods Retail
Gaetz Lakes Sanctuary,52.2849,-113.7954,Lion's Campground,52.279362532761844,-113.80576311815831,Campground
Gaetz Lakes Sanctuary,52.2849,-113.7954,Red Deer River,52.293582,-113.795464,River
Gaetz Lakes Sanctuary,52.2849,-113.7954,Shea Floors,52.281642,-113.808922,Carpet Store
Garden Heights,53.52378445,-113.1293638760216,Triple 2 Rentals,53.52231382599763,-113.13146732627261,Rental Car Location
Garden Heights,53.52378445,-113.1293638760216,Country Boyz,53.527756,-113.12515,Fuel Station
Glendale,51.034096,-114.1522951,Pho Huong Viet,51.0373278037084,-114.14288943177912,Vietnamese Restaurant
Glendale,51.034096,-114.1522951,Heritage Deli and Bakery,51.037277,-114.140913,Deli
Glendale,51.034096,-114.1522951,Shoppers Drug Mart,51.037111,-114.143891,Pharmacy
Glendale,51.034096,-114.1522951,Crafted Burgers and Beer,51.037496625131446,-114.14434287576962,Pub
Glendale,51.034096,-114.1522951,Tim Hortons,51.03734789806941,-114.1439151763916,Coffee Shop
Glendale,51.034096,-114.1522951,San Dong Banjeom,51.02996222294157,-114.1417849884314,Korean Restaurant
Glendale,51.034096,-114.1522951,Viet Sub Express,51.0388937329704,-114.14175402111688,Vietnamese Restaurant
Glendale,51.034096,-114.1522951,Esso,51.037537772703864,-114.14170417608445,Fuel Station
Glendale,51.034096,-114.1522951,7-Eleven,51.038763066573516,-114.1417254041778,Convenience Store
Glendale,51.034096,-114.1522951,Subway,51.037538928753946,-114.14004877728081,Sandwich Spot
Glendale,51.034096,-114.1522951,Pizza Hut Calgary,51.03569682453988,-114.16629430740227,Pizzeria
Glendale,51.034096,-114.1522951,Chilli Club Thai House,51.03773714442074,-114.13952248253527,Thai Restaurant
Glendale,51.034096,-114.1522951,Optimist Arena,51.03210728971596,-114.15985324166355,Hockey Stadium
Glendale,51.034096,-114.1522951,45th Street SW (C-Train),51.03795647794031,-114.1528568556231,Rail Station
Glendale,51.034096,-114.1522951,Optimist Athletic Park,51.0324815616547,-114.15985710895347,Park
Glendale,51.034096,-114.1522951,George Blundun Arena,51.032144951195484,-114.16000426917597,Hockey Stadium
Glendale,51.034096,-114.1522951,Wendy’s,51.038476226233755,-114.14071449640687,Fast Food Restaurant
Glendale,51.034096,-114.1522951,Olympia Liquor,51.038281588680846,-114.14018911104752,Liquor Store
Golden West,52.2907919,-113.8468668,Radisson Hotel Red Deer,52.289172,-113.8418265,Hotel
Golden West,52.2907919,-113.8468668,Mucho Burrito Fresh Mexican Grill,52.2898,-113.838601,Mexican Restaurant
Golden West,52.2907919,-113.8468668,A&W,52.289539,-113.838749,Fast Food Restaurant
Golden West,52.2907919,-113.8468668,Subway,52.29033191869873,-113.83870971083081,Sandwich Spot
Golden West,52.2907919,-113.8468668,Shell,52.28919660289337,-113.84784519930896,Fuel Station
Golden West,52.2907919,-113.8468668,Tim Hortons,52.28807976531387,-113.8508315384388,Coffee Shop
Golden West,52.2907919,-113.8468668,McDonald's,52.288969,-113.849299,Fast Food Restaurant
Golden West,52.2907919,-113.8468668,Shell,52.289117,-113.833705,Fuel Station
Golden West,52.2907919,-113.8468668,Best Western Plus Red Deer Inn & Suites,52.286801320523786,-113.85391822624456,Inn
Golden West,52.2907919,-113.8468668,Wok Box,52.28961828800811,-113.83252892787807,Asian Restaurant
Golden West,52.2907919,-113.8468668,Ramada Red Deer Hotel and Suites,52.287192,-113.850219,Hotel
Golden West,52.2907919,-113.8468668,Co-op gas bar,52.290731562585464,-113.83921798272232,Fuel Station
Golden West,52.2907919,-113.8468668,Mohave Grill,52.287584690101376,-113.85064428105723,Steakhouse
Golden West,52.2907919,-113.8468668,Comfort Inn,52.2861168,-113.851741,Hotel
Golden West,52.2907919,-113.8468668,TownePlace Suites by Marriott Red Deer,52.28537935812791,-113.8539227993897,Hotel
Golden West,52.2907919,-113.8468668,Wholesale Club,52.289361,-113.83513,Factory
Golden West,52.2907919,-113.8468668,Badass Jack's,52.28900715898907,-113.83440678935447,Sandwich Spot
Grandview,52.99198,-114.058143,Hamblin Park,52.99015817,-114.05628949,Park
Heritage Ranch,52.2703967,-113.85365567406788,Petro-Canada,52.27293937281347,-113.8565894429084,Fuel Station
Heritage Ranch,52.2703967,-113.85365567406788,Rogers,52.262184183396286,-113.85513064616704,Mobile Phone Store
Heritage Ranch,52.2703967,-113.85365567406788,Alberta Sports Hall Of Fame,52.261625332489444,-113.85419038418003,Museum
Heritage Ranch,52.2703967,-113.85365567406788,Tourism Red Deer,52.261481,-113.854229,Tourist Information and Service
Highland Green,50.5936694,-113.889174,Tim Hortons,50.59234440679614,-113.87832775714742,Coffee Shop
Highland Green,50.5936694,-113.889174,Mac's,50.5929286,-113.8798551,Convenience Store
Highland Green,50.5936694,-113.889174,Taco Time,50.593095,-113.877776,Taco Restaurant
Highland Green,50.5936694,-113.889174,Lineham Mechanical,50.589198,-113.880133,Retail
Inglewood,53.5644581,-113.540708,Dang Good,53.570516,-113.551729,Vietnamese Restaurant
Inglewood,53.5644581,-113.540708,Sherbrooke Liquor Store,53.570623,-113.549121,Liquor Store
Inglewood,53.5644581,-113.540708,Dairy Queen,53.5641982262031,-113.55296019972226,Ice Cream Parlor
Inglewood,53.5644581,-113.540708,A&W,53.559395,-113.535491,Fast Food Restaurant
Inglewood,53.5644581,-113.540708,McDonald's,53.570703441864495,-113.5354983694524,Fast Food Restaurant
Inglewood,53.5644581,-113.540708,7-Eleven,53.56990990142695,-113.54062280055581,Convenience Store
Inglewood,53.5644581,-113.540708,Super Flea Market,53.55827888505367,-113.52978716540561,Flea Market
Inglewood,53.5644581,-113.540708,Pizza Hut,53.56456,-113.552762,Pizzeria
Inglewood,53.5644581,-113.540708,Shell,53.57010926,-113.54573168,Fuel Station
Inglewood,53.5644581,-113.540708,Shoppers Drug Mart,53.561273,-113.55372,Pharmacy
Inglewood,53.5644581,-113.540708,Subway,53.57130412327527,-113.54890331597164,Sandwich Spot
Inglewood,53.5644581,-113.540708,Boston Pizza,53.56230975802606,-113.55187946072583,Pizzeria
Inglewood,53.5644581,-113.540708,Petro-Canada,53.559258,-113.53548,Fuel Station
Inglewood,53.5644581,-113.540708,Tim Hortons,53.56996777232125,-113.54656471878121,Coffee Shop
Inglewood,53.5644581,-113.540708,Tim Hortons,53.55923735498699,-113.52890610694885,Coffee Shop
Inglewood,53.5644581,-113.540708,Burger Baron,53.570016485581284,-113.53688352735503,Burger Joint
Inglewood,53.5644581,-113.540708,McDonald's,53.56153116774327,-113.552036089144,Fast Food Restaurant
Inglewood,53.5644581,-113.540708,Westmount Mall,53.57005119351319,-113.54732816984264,Shopping Mall
Inglewood,53.5644581,-113.540708,Tim Hortons,53.56113955399342,-113.55222152313223,Coffee Shop
Inglewood,53.5644581,-113.540708,Delta Art Supplies,53.559625490679146,-113.53007968304416,Arts and Crafts Store
Inglewood,53.5644581,-113.540708,Safeway Gas Bar,53.55978412469918,-113.55209281417496,Fuel Station
Inglewood,53.5644581,-113.540708,Sagar,53.571132,-113.548829,Indian Restaurant
Inglewood,53.5644581,-113.540708,Dutch Delicious Bakery & Deli,53.57050575392543,-113.55135103570949,Bakery
Ironstone,53.53187765,-114.00020724660794,Freson Bros. Fresh Market,53.534299791106235,-114.00328856478434,Grocery Store
Ironstone,53.53187765,-114.00020724660794,Tim Hortons,53.53585931897881,-114.00334529578686,Coffee Shop
Ironstone,53.53187765,-114.00020724660794,7-Eleven,53.53073959170373,-114.00102853775024,Convenience Store
Ironstone,53.53187765,-114.00020724660794,A&W,53.535988,-114.002561,Fast Food Restaurant
Ironstone,53.53187765,-114.00020724660794,Parkland School Division,53.53338338110701,-114.00065145101001,Clothing Store
Ironstone,53.53187765,-114.00020724660794,Co-Op,53.52998710872263,-114.00641518178053,Fuel Station
Ironstone,53.53187765,-114.00020724660794,Rotary Park,53.53783562849439,-114.0034959419825,Playground
Kentwood West,51.03657655,-114.087487093712,Made By Marcus,51.03780820812762,-114.08528690894876,Ice Cream Parlor
Kentwood West,51.03657655,-114.087487093712,Myhre's Deli,51.039767354410046,-114.08919457979881,Deli
Kentwood West,51.03657655,-114.087487093712,Steeling Home,51.037906750854106,-114.0847828287693,Gift Store
Kentwood West,51.03657655,-114.087487093712,Galaxie Diner,51.03972982879154,-114.08910353246397,Diner
Kentwood West,51.03657655,-114.087487093712,The Coup,51.03782732788807,-114.08319210868017,Vegan and Vegetarian Restaurant
Kentwood West,51.03657655,-114.087487093712,Tubby Dog,51.037850962671726,-114.08578114398912,Hot Dog Joint
Kentwood West,51.03657655,-114.087487093712,Waves Coffee House,51.03767467348794,-114.08555750029562,Coffee Shop
Kentwood West,51.03657655,-114.087487093712,Rustic Sourdough Bakery & Deli,51.03778134961725,-114.09194082616062,Bakery
Kentwood West,51.03657655,-114.087487093712,Caffe Beano,51.03816069710851,-114.08435042070873,Coffee Shop
Kentwood West,51.03657655,-114.087487093712,Nando's,51.03768,-114.08615,Portuguese Restaurant
Kentwood West,51.03657655,-114.087487093712,La Vida Loca,51.037610647718424,-114.08896629954917,Mexican Restaurant
Kentwood West,51.03657655,-114.087487093712,Khao San Thai Kitchen,51.037940198922016,-114.09260195680308,Thai Restaurant
Kentwood West,51.03657655,-114.087487093712,Moti Mahal Restaurant,51.037456668278196,-114.09497157189695,Indian Restaurant
Kentwood West,51.03657655,-114.087487093712,Jerome,51.0410548715945,-114.08912147657978,Cosmetics Store
Kentwood West,51.03657655,-114.087487093712,Liquor Depot,51.038024856770875,-114.08882229430708,Liquor Store
Kentwood West,51.03657655,-114.087487093712,Heaven Artisan GF Cuisine,51.03772,-114.08513,Gluten-Free Restaurant
Kentwood West,51.03657655,-114.087487093712,Anejo,51.0377161197073,-114.078656888537,Restaurant
Kentwood West,51.03657655,-114.087487093712,Blanco Cantina,51.03771611970733,-114.078656888537,Restaurant
Kentwood West,51.03657655,-114.087487093712,Los Chilitos Taco and Tequila House,51.03765720292827,-114.0922410428217,Mexican Restaurant
Kentwood West,51.03657655,-114.087487093712,Cibo Calgary,51.038013416932706,-114.08498884768005,Italian Restaurant
Kentwood West,51.03657655,-114.087487093712,Betty Lou's Library,51.037978,-114.082527,Speakeasy
Kentwood West,51.03657655,-114.087487093712,Royale,51.03818,-114.078556,French Restaurant
Kentwood West,51.03657655,-114.087487093712,Gaga Pizzeria,51.042193066939014,-114.09068497859971,Pizzeria
Kentwood West,51.03657655,-114.087487093712,Browns Socialhouse Mount Royal,51.038211339341984,-114.08125683383247,Restaurant
Kentwood West,51.03657655,-114.087487093712,Jelly Modern Doughnuts,51.039970232355834,-114.08168281429425,Donut Shop
Kentwood West,51.03657655,-114.087487093712,Analog Coffee,51.03797538328347,-114.07927144867843,Café
Kentwood West,51.03657655,-114.087487093712,Kalamata Grocery,51.03940743942703,-114.08912946314987,Grocery Store
Kentwood West,51.03657655,-114.087487093712,Shawarma Knight,51.03889412564594,-114.09460759477226,Middle Eastern Restaurant
Kentwood West,51.03657655,-114.087487093712,Good Earth Cafe,51.03916888745145,-114.08898520724537,Coffee Shop
Kentwood West,51.03657655,-114.087487093712,Una Pizza + Wine,51.037921629187096,-114.07549589547197,Pizzeria
Kentwood West,51.03657655,-114.087487093712,Reid's,51.03827642860439,-114.0775663436521,Gift Store
Kentwood West,51.03657655,-114.087487093712,Green Chili Indian Restaurant,51.03783913357006,-114.09512571499802,Indian Restaurant
Kentwood West,51.03657655,-114.087487093712,Edges Salon & Spa,51.040267563260265,-114.08227565600215,Hair Salon
Kentwood West,51.03657655,-114.087487093712,Golden Bell Saigon,51.03800058440614,-114.08759232294967,Vietnamese Restaurant
Kentwood West,51.03657655,-114.087487093712,Calgary Co-op Midtown Food Centre,51.04334340768955,-114.08796429634094,Grocery Store
Kentwood West,51.03657655,-114.087487093712,Clive Burger,51.037958586602024,-114.07894148919266,Burger Joint
Kentwood West,51.03657655,-114.087487093712,Holy Grill,51.04362282345177,-114.0806920298375,Sandwich Spot
Kentwood West,51.03657655,-114.087487093712,Jamesons Irish Pub,51.03791624248233,-114.09085822079236,Pub
Kentwood West,51.03657655,-114.087487093712,Cluck n Cleaver,51.03908060259869,-114.09498734863232,Fried Chicken Joint
Kentwood West,51.03657655,-114.087487093712,Posto Pizzeria and Bar,51.04358605849173,-114.08121476274142,Pizzeria
Kentwood West,51.03657655,-114.087487093712,Fair's Fair Books,51.037975233320246,-114.09478078142018,Bookstore
Kentwood West,51.03657655,-114.087487093712,Co-op Liquor Store,51.04315659349767,-114.08712812544816,Liquor Store
Kentwood West,51.03657655,-114.087487093712,Sloth Records,51.03799595121665,-114.07894611913416,Music Store
Kentwood West,51.03657655,-114.087487093712,MEC Calgary,51.043992018731785,-114.08074000102108,Sporting Goods Retail
Kentwood West,51.03657655,-114.087487093712,Korean Village Restaurant,51.044449699892574,-114.09275386478788,Korean Restaurant
Kentwood West,51.03657655,-114.087487093712,Pig & Duke Pub,51.04228310885265,-114.0916620032783,Pub
Kentwood West,51.03657655,-114.087487093712,Ship & Anchor Pub,51.03790425430898,-114.07361488467656,Pub
Kentwood West,51.03657655,-114.087487093712,Black Sheep Pâtisserie,51.037713,-114.080201,Pastry Shop
Kentwood West,51.03657655,-114.087487093712,Co Do Vietnamese Restaurant,51.03773306783951,-114.09379974031087,Vietnamese Restaurant
Kentwood West,51.03657655,-114.087487093712,Bridgette Bar,51.04355484828913,-114.07875404463965,Restaurant
Kentwood West,51.03657655,-114.087487093712,The Camera Store,51.04308032987257,-114.07945096492767,Camera Store
Kentwood West,51.03657655,-114.087487093712,Heritage Posters and Music,51.04349203053323,-114.09490581202826,Record Store
Kentwood West,51.03657655,-114.087487093712,Blame Betty,51.03770413919253,-114.0811552167501,Boutique
Kentwood West,51.03657655,-114.087487093712,The Big Cheese Poutinerie,51.037938649855136,-114.07918113701163,Poutine Restaurant
Kentwood West,51.03657655,-114.087487093712,Shoppers Drug Mart,51.037743,-114.08001,Pharmacy
Kentwood West,51.03657655,-114.087487093712,Monki Breakfast Club & Bistro Beltline,51.044118596282296,-114.09151144121125,Breakfast Spot
Kentwood West,51.03657655,-114.087487093712,Fuji Yama Japanese Restaurant,51.03799752117357,-114.08207245814799,Japanese Restaurant
Kentwood West,51.03657655,-114.087487093712,Kawa Espresso Bar,51.04024300120809,-114.08157323494179,Coffee Shop
Kentwood West,51.03657655,-114.087487093712,Comery Block Barbecue,51.037945,-114.076546,BBQ Joint
Kentwood West,51.03657655,-114.087487093712,Kim Anh,51.03791194463823,-114.07594933177744,Vietnamese Restaurant
Kentwood West,51.03657655,-114.087487093712,Bonterra Trattoria,51.043477854266705,-114.08110796721424,Italian Restaurant
Kentwood West,51.03657655,-114.087487093712,The Casbah,51.043009,-114.077691,Moroccan Restaurant
Kentwood West,51.03657655,-114.087487093712,Community Natural Foods - 10th Avenue Market,51.044335099502014,-114.0918216038969,Grocery Store
Kentwood West,51.03657655,-114.087487093712,Menchie's,51.037948,-114.075292,Frozen Yogurt Shop
Kentwood West,51.03657655,-114.087487093712,Cookbook Company,51.04301387823981,-114.07781068298135,Gourmet Store
Kentwood West,51.03657655,-114.087487093712,National Beer Hall,51.03790509900583,-114.07414428444396,Bar
Kentwood West,51.03657655,-114.087487093712,Hotel Elan,51.03861385589755,-114.08825770379458,Hotel
Kentwood West,51.03657655,-114.087487093712,La Casa Latina,51.043039856229655,-114.09254550933838,Mexican Restaurant
Kentwood West,51.03657655,-114.087487093712,Kanpai Sushi,51.039674,-114.081486,Sushi Restaurant
Kentwood West,51.03657655,-114.087487093712,Thai Tai,51.03778143706992,-114.07543565527166,Vietnamese Restaurant
Kentwood West,51.03657655,-114.087487093712,Starbucks,51.03767,-114.07846,Coffee Shop
Kentwood West,51.03657655,-114.087487093712,Vistek,51.04388337473436,-114.090546849799,Electronics Store
Kentwood West,51.03657655,-114.087487093712,Danish Canadian Club,51.04253733891496,-114.07813290105462,Scandinavian Restaurant
Kentwood West,51.03657655,-114.087487093712,Philosafy,51.037953,-114.075719,Café
Kentwood West,51.03657655,-114.087487093712,Galaxy Karaoke,51.04450590514641,-114.0921393188919,Karaoke Bar
Kentwood West,51.03657655,-114.087487093712,Tuk Tuk Thai,51.03799093868964,-114.07650930965018,Thai Restaurant
Kentwood West,51.03657655,-114.087487093712,Best Western Plus Suites Downtown,51.0401792,-114.0813902,Hotel
Kentwood West,51.03657655,-114.087487093712,Dairy Queen,51.03968548017438,-114.08214658498764,Ice Cream Parlor
Kentwood West,51.03657655,-114.087487093712,Midori Japanese Cafe,51.03791718615873,-114.08637511268915,Japanese Restaurant
Kentwood West,51.03657655,-114.087487093712,Mirchi Restaurant,51.04209186496833,-114.08060011053992,Indian Restaurant
Kentwood West,51.03657655,-114.087487093712,Popeyes Louisiana Kitchen,51.038063738434445,-114.09212757165172,Fried Chicken Joint
Kentwood West,51.03657655,-114.087487093712,Atlas Specialty Supermarket and Persian Cuisine,51.045362123905896,-114.08443871585656,Persian Restaurant
Kentwood West,51.03657655,-114.087487093712,Pizza Hut,51.03804119975827,-114.08650957695527,Pizzeria
Kentwood West,51.03657655,-114.087487093712,Starbucks,51.031795,-114.095158,Coffee Shop
Kentwood West,51.03657655,-114.087487093712,A&W,51.040569,-114.094314,Fast Food Restaurant
Kentwood West,51.03657655,-114.087487093712,Tomkins Park,51.03786371127159,-114.0815318457828,Park
Kentwood West,51.03657655,-114.087487093712,Nellie's Cosmic Cafe,51.03782819655399,-114.08453580048065,Diner
Kentwood West,51.03657655,-114.087487093712,Fionn MacCool's,51.0430717,-114.0911082,Restaurant
Kentwood West,51.03657655,-114.087487093712,Fire N Ice,51.038169053818294,-114.08065779712072,Hookah Bar
Kentwood West,51.03657655,-114.087487093712,Thanh Long,51.03802683429431,-114.08956156044269,Vietnamese Restaurant
Kentwood West,51.03657655,-114.087487093712,Tim Hortons,51.0385732,-114.0815997,Coffee Shop
Kentwood West,51.03657655,-114.087487093712,Tim Hortons,51.0375739032207,-114.087390303611,Coffee Shop
Kentwood West,51.03657655,-114.087487093712,Subway,51.039583393268586,-114.09440169183988,Sandwich Spot
Kentwood West,51.03657655,-114.087487093712,Subway,51.0397334,-114.0942571,Sandwich Spot
Kentwood West,51.03657655,-114.087487093712,Structube,51.037654,-114.082166,Furniture and Home Store
Kentwood West,51.03657655,-114.087487093712,Subway,51.03775856272251,-114.078722019072,Sandwich Spot
Kentwood West,51.03657655,-114.087487093712,Mugs Pub,51.03954918511286,-114.09393271025233,Pub
Kentwood West,51.03657655,-114.087487093712,Best Buy,51.0376802,-114.0820517,Electronics Store
Kentwood West,51.03657655,-114.087487093712,Shell,51.04108147,-114.09439446,Fuel Station
Kentwood West,51.03657655,-114.087487093712,Husky,51.04201622529874,-114.09502269683634,Fuel Station
Kingsgate,53.46012755,-113.39621921739132,Glassy Liquor,53.45890840950069,-113.39311589109998,Liquor Store
Kingsgate,53.46012755,-113.39621921739132,Minchau Playground,53.45640358223506,-113.40081429438965,Playground
Kingsgate,53.46012755,-113.39621921739132,Crawford Plains Park,53.45641766170186,-113.40090055721066,Park
Kingsgate,53.46012755,-113.39621921739132,Bostenpizza,53.458007,-113.388798,Diner
Kingsgate,53.46012755,-113.39621921739132,Tim Hortons,53.4631812187652,-113.392952531685,Coffee Shop
Lancaster Green,50.998656,-114.1304941,Weaselhead Park,50.9945171767089,-114.14004001722255,Park
Lancaster Green,50.998656,-114.1304941,Bella Roma Pizza & Steakhouse,50.99686274962492,-114.11890631755988,Sports Bar
Lancaster Green,50.998656,-114.1304941,Spot On Kitchen & Bar,51.00606968457791,-114.13012003873816,Restaurant
Lancaster Green,50.998656,-114.1304941,IGA Lakeview,50.996303,-114.118019,Grocery Store
Lancaster Green,50.998656,-114.1304941,Shoppers Drug Mart,50.996303,-114.11801,Pharmacy
Lancaster Green,50.998656,-114.1304941,Dairy Queen,50.99571548791547,-114.11894515156746,Ice Cream Parlor
Lancaster Green,50.998656,-114.1304941,Tim Hortons,51.00622883766121,-114.13092521578619,Coffee Shop
Lancaster Green,50.998656,-114.1304941,Lincoln Park Liquor,51.00341810240033,-114.12963195325908,Liquor Store
Lancaster Green,50.998656,-114.1304941,Sweet Life Crepes & Waffles,50.99680027883927,-114.11940775948136,Breakfast Spot
Lancaster Green,50.998656,-114.1304941,Paragon Pharmacy,50.996426,-114.119336,Pharmacy
Lancaster Green,50.998656,-114.1304941,Mac's,50.9963474,-114.1190028,Convenience Store
Lancaster Green,50.998656,-114.1304941,Liquor Depot Lakeview,50.99600075728447,-114.11899094044995,Liquor Store
Lancaster Green,50.998656,-114.1304941,lakeview bakery,50.99593,-114.11900565,Bakery
Lancaster Green,50.998656,-114.1304941,Out Of Hand,50.995956,-114.118174,Textiles Store
Lancaster Meadows,45.3986334,-75.6107363,Giant Tiger,45.39102353142358,-75.61067808558147,Department Store
Lancaster Meadows,45.3986334,-75.6107363,Canada Science and Technology Museum,45.4035875840258,-75.62011957168579,Science Museum
Lancaster Meadows,45.3986334,-75.6107363,Kal Tire,45.396622,-75.600058,Automotive Repair Shop
Lancaster Meadows,45.3986334,-75.6107363,Tim Hortons,45.394170015194476,-75.6052668294914,Coffee Shop
Lancaster Meadows,45.3986334,-75.6107363,Tommy and Lefebvre,45.399400218341626,-75.61178668967727,Sporting Goods Retail
Lancaster Meadows,45.3986334,-75.6107363,Quiznos,45.394413696118924,-75.60519464791255,Sandwich Spot
Lancaster Meadows,45.3986334,-75.6107363,Quickie,45.39547230875543,-75.62157284902324,Convenience Store
Lancaster Meadows,45.3986334,-75.6107363,Elmvale Acres Station,45.39949077373602,-75.62342330740582,Bus Station
Maskepetoon Park,53.46058755,-113.5137289,Bistecca Italian Steakhouse Wine Bar,53.45447427709589,-113.51484702814429,Steakhouse
Maskepetoon Park,53.46058755,-113.5137289,Spring Roll Kitchen,53.45540342145918,-113.51472445381059,Vietnamese Restaurant
Maskepetoon Park,53.46058755,-113.5137289,Dream Tea House,53.45304119866929,-113.51015985433766,Tea Room
Maskepetoon Park,53.46058755,-113.5137289,Starbucks,53.454719,-113.509828,Coffee Shop
Maskepetoon Park,53.46058755,-113.5137289,Good Buddy Restaurant,53.4528018549559,-113.51405856541845,Asian Restaurant
Maskepetoon Park,53.46058755,-113.5137289,Boston Pizza,53.45344680217623,-113.51467307813073,Pizzeria
Maskepetoon Park,53.46058755,-113.5137289,Starbucks,53.455605,-113.515501,Coffee Shop
Maskepetoon Park,53.46058755,-113.5137289,Brewsters Century Park,53.454628531511,-113.5151848251332,Brewery
Maskepetoon Park,53.46058755,-113.5137289,Shoppers Drug Mart,53.45382,-113.5117,Pharmacy
Maskepetoon Park,53.46058755,-113.5137289,Shell,53.453543438975764,-113.51246025201479,Fuel Station
Maskepetoon Park,53.46058755,-113.5137289,Subway,53.45342512756873,-113.50936411195391,Sandwich Spot
Maskepetoon Park,53.46058755,-113.5137289,Safeway Heritage,53.454719,-113.509828,Grocery Store
Maskepetoon Park,53.46058755,-113.5137289,Bogani Cafe,53.452691,-113.51456076,Café
Maskepetoon Park,53.46058755,-113.5137289,Panda Hut,53.453390934580945,-113.50859163068962,Fast Food Restaurant
Maskepetoon Park,53.46058755,-113.5137289,HomeSense,53.465917318361804,-113.51558520224434,Furniture and Home Store
Maskepetoon Park,53.46058755,-113.5137289,Domino's Pizza,53.46271862624836,-113.50369923608277,Pizzeria
Maskepetoon Park,53.46058755,-113.5137289,McDonald's,53.45347545146163,-113.51352264981637,Fast Food Restaurant
Maskepetoon Park,53.46058755,-113.5137289,Snickerdoodles Convenience Store,53.46229330639611,-113.50229343469914,Convenience Store
Maskepetoon Park,53.46058755,-113.5137289,Ace Liquor Discounter (Heritage),53.45340644469225,-113.51533647123644,Liquor Store
Maskepetoon Park,53.46058755,-113.5137289,Sobeys - Heritage,53.452273,-113.515518,Grocery Store
Morrisroe Extension,52.2558,-113.7777,IGA Eastview,52.258852,-113.789116,Grocery Store
Morrisroe Extension,52.2558,-113.7777,Dairy Queen,52.25496493997471,-113.76430749893188,Ice Cream Parlor
Morrisroe Extension,52.2558,-113.7777,Co-op Deer Park,52.25466437428489,-113.76462766996444,Grocery Store
Morrisroe Extension,52.2558,-113.7777,7-Eleven,52.25788703468481,-113.78967314958572,Convenience Store
Morrisroe Extension,52.2558,-113.7777,Mac's,52.2514602,-113.7734948,Convenience Store
Morrisroe Extension,52.2558,-113.7777,East 40th Pub,52.2585087,-113.7901563,Pub
Mountview,55.181499200000005,-118.77918885778664,Moxies Grande Prairie Restaurant,55.186924105169844,-118.79107623785887,New American Restaurant
Mountview,55.181499200000005,-118.77918885778664,Shell,55.18501619,-118.78127589,Fuel Station
Mountview,55.181499200000005,-118.77918885778664,Safeway Canada,55.18370328153655,-118.79346417270828,Supermarket
Mountview,55.181499200000005,-118.77918885778664,Shell,55.184365830818976,-118.79259808720708,Fuel Station
Oriole Park,52.2715866,-113.8464177,#403earlybird,52.268428802490234,-113.85126495361328,Moving Target
Oriole Park,52.2715866,-113.8464177,Petro-Canada,52.27293937281347,-113.8565894429084,Fuel Station
Parkvale,44.6408571,-63.7132251,Tim Hortons,44.64607936349515,-63.713964745402336,Coffee Shop
Parkvale,44.6408571,-63.7132251,Pharmasave,44.645037,-63.711873,Pharmacy
Parkvale,44.6408571,-63.7132251,TBR Restaurant & Lounge,44.64524068728478,-63.71269299105518,Bar
Parkvale,44.6408571,-63.7132251,Guardian (Guardian - Timberlea Pharmacy),44.64504139642991,-63.71070656086784,Pharmacy
Parkvale,44.6408571,-63.7132251,Ultramar,44.645615,-63.713174,Fuel Station
Parkvale,44.6408571,-63.7132251,Sobeys Timberlea,44.637029,-63.717703,Grocery Store
Parkvale,44.6408571,-63.7132251,D & Jo's Country Market,44.645849064694815,-63.712264637627925,Farmers Market
Parkvale,44.6408571,-63.7132251,lakeside,44.63842420338686,-63.70430741256603,Travel and Transportation
Queens Business Park,52.2994142,-113.86756874431674,Queen's Diner,52.29816294646844,-113.87185721865674,Burger Joint
Red Deer College,52.2463626,-113.83431459123666,Tim Hortons,52.24622,-113.828798,Coffee Shop
Red Deer College,52.2463626,-113.83431459123666,The Farside Bar & Grill.,52.24622254479581,-113.82715702056885,Bar
Red Deer Golf and Country Club,52.2635,-113.84,Bower Ponds,52.268584299866134,-113.83184548792215,Other Great Outdoors
Red Deer Golf and Country Club,52.2635,-113.84,Heritage Ranch,52.26129439394139,-113.85179064846778,Stable
Red Deer Golf and Country Club,52.2635,-113.84,West Park Foods,52.258104162567605,-113.82998943328857,Pharmacy
Red Deer Golf and Country Club,52.2635,-113.84,West Park Fas Gas Plus,52.26256737776424,-113.82557369541588,Fuel Station
Red Deer Golf and Country Club,52.2635,-113.84,Alberta Sports Hall Of Fame,52.261625332489444,-113.85419038418003,Museum
Red Deer Golf and Country Club,52.2635,-113.84,Tourism Red Deer,52.261481,-113.854229,Tourist Information and Service
Red Deer Golf and Country Club,52.2635,-113.84,Joey's Seafood Restaurants,52.26200865817992,-113.82554241828132,Seafood Restaurant
Riverlands,50.87419,-113.9837266,Berwick Pub,50.8804488739269,-113.97816055802437,Pub
Riverlands,50.87419,-113.9837266,Good Earth Coffee House,50.87960176501044,-113.97625770183544,Café
Riverlands,50.87419,-113.9837266,Good Earth Coffeehouse,50.87967295413597,-113.97636066077122,Coffee Shop
Riverlands,50.87419,-113.9837266,Starbucks,50.880276,-113.977238,Coffee Shop
Riverlands,50.87419,-113.9837266,Subway,50.880142307912244,-113.97760627116395,Sandwich Spot
Riverlands,50.87419,-113.9837266,Sobeys - Cranston,50.880276,-113.977238,Grocery Store
Riverlands,50.87419,-113.9837266,Petro-Canada,50.880031,-113.978175,Fuel Station
Riverlands,50.87419,-113.9837266,Ajisai Japanese Cuisine,50.88021419320964,-113.97745487869412,Sushi Restaurant
Riverlands,50.87419,-113.9837266,Canadian Pizza Unlimited,50.880673974462574,-113.97742885559832,Pizzeria
Riverlands,50.87419,-113.9837266,Sobeys Liquor Store Cranston,50.88039224488966,-113.97634342139787,Liquor Store
Riverside Heavy Industrial Park,52.3080066,-113.79329655113683,Civic Yards,52.30335210273319,-113.78909237300861,Monument
Riverside Heavy Industrial Park,52.3080066,-113.79329655113683,Duckerings,52.305956919652985,-113.8033470798686,Hiking Trail
Rosedale Estates,53.54252150000001,-113.51131954864,Kyoto Japanese Cuisine,53.54116949229921,-113.50940302018427,Japanese Restaurant
Rosedale Estates,53.54252150000001,-113.51131954864,Love Pizza,53.5416045587401,-113.50883652611297,Pizzeria
Rosedale Estates,53.54252150000001,-113.51131954864,Cactus Club Cafe,53.541041370475526,-113.51311702518768,Bar
Rosedale Estates,53.54252150000001,-113.51131954864,Khazana Restaurant,53.542735468061984,-113.50425082076549,Indian Restaurant
Rosedale Estates,53.54252150000001,-113.51131954864,Indian Fusion - The Curry House,53.545424,-113.512693,Indian Restaurant
Rosedale Estates,53.54252150000001,-113.51131954864,Die Pie,53.540783,-113.51438,Vegan and Vegetarian Restaurant
Rosedale Estates,53.54252150000001,-113.51131954864,Louisiana Purchase,53.54521799739609,-113.51268819731226,Cajun and Creole Restaurant
Rosedale Estates,53.54252150000001,-113.51131954864,District Coffee Co,53.538902800233345,-113.50825685139343,Café
Rosedale Estates,53.54252150000001,-113.51131954864,The Common,53.53763503776285,-113.50857049590414,Night Club
Rosedale Estates,53.54252150000001,-113.51131954864,Marble Slab Creamery,53.54143587601562,-113.50985888291379,Ice Cream Parlor
Rosedale Estates,53.54252150000001,-113.51131954864,Cibo Bistro,53.546829835862056,-113.51541840257812,Italian Restaurant
Rosedale Estates,53.54252150000001,-113.51131954864,Mikado,53.54573419816865,-113.5090962806086,Sushi Restaurant
Rosedale Estates,53.54252150000001,-113.51131954864,Sicilian Pasta Kitchen,53.54092075680392,-113.51531073755784,Italian Restaurant
Rosedale Estates,53.54252150000001,-113.51131954864,Central Social Hall,53.54085683199365,-113.50889201136073,Bar
Rosedale Estates,53.54252150000001,-113.51131954864,Pampa Brazilian Steakhouse,53.53796436566414,-113.50828835970052,Brazilian Restaurant
Rosedale Estates,53.54252150000001,-113.51131954864,Zuppa Cafe,53.53705929330614,-113.5098471391638,Breakfast Spot
Rosedale Estates,53.54252150000001,-113.51131954864,Audreys Books,53.54101542111579,-113.50490292352364,Bookstore
Rosedale Estates,53.54252150000001,-113.51131954864,Elm Café,53.54183119474026,-113.52322623920463,Café
Rosedale Estates,53.54252150000001,-113.51131954864,Corso 32,53.54094890526599,-113.49875156315315,Italian Restaurant
Rosedale Estates,53.54252150000001,-113.51131954864,The Cask & Barrel,53.54055250351425,-113.49932837728412,Whisky Bar
Rosedale Estates,53.54252150000001,-113.51131954864,The Pint Public House,53.54165396829774,-113.50821374127393,Sports Bar
Rosedale Estates,53.54252150000001,-113.51131954864,Victoria Promenade,53.53981175417973,-113.52332700636728,Scenic Lookout
Rosedale Estates,53.54252150000001,-113.51131954864,The Parlour,53.54536467492016,-113.50691628317007,Italian Restaurant
Rosedale Estates,53.54252150000001,-113.51131954864,The Marc,53.538354768209395,-113.50301693269388,French Restaurant
Rosedale Estates,53.54252150000001,-113.51131954864,Matrix Hotel,53.53905588938105,-113.5049717627898,Hotel
Rosedale Estates,53.54252150000001,-113.51131954864,Press'd The Sandwich Company,53.54115601962296,-113.51475556349142,Sandwich Spot
Rosedale Estates,53.54252150000001,-113.51131954864,Burrito Libre,53.545952324590445,-113.51748210766601,Burrito Restaurant
Rosedale Estates,53.54252150000001,-113.51131954864,Remedy Cafe,53.540782923628115,-113.49740498074345,Café
Rosedale Estates,53.54252150000001,-113.51131954864,Sofra,53.54560758762166,-113.50261956866164,Turkish Restaurant
Rosedale Estates,53.54252150000001,-113.51131954864,Legislature Grounds,53.53461410748498,-113.50607142126866,Park
Rosedale Estates,53.54252150000001,-113.51131954864,The Old Spaghetti Factory,53.54355467775372,-113.49754943416583,Italian Restaurant
Rosedale Estates,53.54252150000001,-113.51131954864,Best Buy,53.545101636866505,-113.50971221923828,Electronics Store
Rosedale Estates,53.54252150000001,-113.51131954864,Harvey's,53.54581644370733,-113.5089481932888,Restaurant
Rosedale Estates,53.54252150000001,-113.51131954864,DeVine Wines,53.54105714544119,-113.49929935015028,Wine Store
Rosedale Estates,53.54252150000001,-113.51131954864,Sabor Divino,53.543151995499194,-113.49752832442137,Restaurant
Rosedale Estates,53.54252150000001,-113.51131954864,Save-On-Foods,53.5426951,-113.5087366,Supermarket
Rosedale Estates,53.54252150000001,-113.51131954864,Tzin,53.54133741557251,-113.49914935447478,Tapas Restaurant
Rosedale Estates,53.54252150000001,-113.51131954864,Starbucks,53.53918,-113.504204,Coffee Shop
Rosedale Estates,53.54252150000001,-113.51131954864,Coffee Bureau,53.54088202486885,-113.50147274519168,Café
Rosedale Estates,53.54252150000001,-113.51131954864,Rocky Mountain Icehouse,53.540956204374794,-113.50161181943265,Gastropub
Rosedale Estates,53.54252150000001,-113.51131954864,Bua Thai,53.540589,-113.515805,Thai Restaurant
Rosedale Estates,53.54252150000001,-113.51131954864,Uccellino,53.540819,-113.498693,Italian Restaurant
Rosedale Estates,53.54252150000001,-113.51131954864,Constable Ezio Faraone Park,53.533640632188714,-113.51108623656006,Park
Rosedale Estates,53.54252150000001,-113.51131954864,Bower,53.5410368518301,-113.50210866629502,Night Club
Rosedale Estates,53.54252150000001,-113.51131954864,Café Amore Bistro,53.549668423733166,-113.50692386243111,Italian Restaurant
Rosedale Estates,53.54252150000001,-113.51131954864,Credo Coffee,53.541737731366624,-113.4989804307515,Coffee Shop
Rosedale Estates,53.54252150000001,-113.51131954864,Teddy's Pub & Grill,53.54085135685985,-113.51742198026493,Diner
Rosedale Estates,53.54252150000001,-113.51131954864,Famoso Neapolitan Pizzeria,53.541189163400574,-113.52491189047223,Pizzeria
Rosedale Estates,53.54252150000001,-113.51131954864,Beer Revolution Craft Beer and Pizza Bar,53.54646682402364,-113.52363793277387,Gastropub
Rosedale Estates,53.54252150000001,-113.51131954864,Sukhothai,53.54594312391628,-113.52091312408447,Thai Restaurant
Rosedale Estates,53.54252150000001,-113.51131954864,Japonais Bistro,53.54113384691757,-113.52552474013221,Japanese Restaurant
Rosedale Estates,53.54252150000001,-113.51131954864,Hoang Long,53.540207991649176,-113.50853487802456,Vietnamese Restaurant
Rosedale Estates,53.54252150000001,-113.51131954864,I Love Sushi,53.54148640716539,-113.50091585378533,Sushi Restaurant
Rosedale Estates,53.54252150000001,-113.51131954864,Drift Mobile Eatery,53.541996015280965,-113.49846505077028,Food Truck
Rosedale Estates,53.54252150000001,-113.51131954864,Evolution Wonderlounge,53.54313067759274,-113.49761446779198,Gay Bar
Rosedale Estates,53.54252150000001,-113.51131954864,Brewsters Brewing Company - Oliver Square,53.547083295537746,-113.52186368247374,Brewery
Rosedale Estates,53.54252150000001,-113.51131954864,Edmonton's Outdoor Neon Sign Museum,53.54602575064421,-113.49955186530607,Museum
Rosedale Estates,53.54252150000001,-113.51131954864,Normand's Restaurant,53.540891,-113.52193,Restaurant
Rosedale Estates,53.54252150000001,-113.51131954864,Wildflower Grill,53.539357324801216,-113.50462953204085,Restaurant
Rosedale Estates,53.54252150000001,-113.51131954864,1ST RND,53.546416118101135,-113.51518019119885,Sports Bar
Rosedale Estates,53.54252150000001,-113.51131954864,il Pasticcio,53.53882625126604,-113.52072370982147,Italian Restaurant
Rosedale Estates,53.54252150000001,-113.51131954864,Ricky's All Day Grill,53.54122602222664,-113.50956022009979,Breakfast Spot
Rosedale Estates,53.54252150000001,-113.51131954864,Transcend Coffee,53.54600689066019,-113.49905483832785,Coffee Shop
Rosedale Estates,53.54252150000001,-113.51131954864,The Burger's Priest,53.54117092259316,-113.50986106288012,Fast Food Restaurant
Rosedale Estates,53.54252150000001,-113.51131954864,Evoolution Olive & Specialty Oils & Vinegars,53.54143933460134,-113.4989433907987,Miscellaneous Store
Rosedale Estates,53.54252150000001,-113.51131954864,Cavern,53.54243037629711,-113.49904077945115,Cheese Store
Rosedale Estates,53.54252150000001,-113.51131954864,T.H.I.S Fruit Cafe,53.54551124686855,-113.5011209047819,Coffee Shop
Rosedale Estates,53.54252150000001,-113.51131954864,The Canadian Brewhouse,53.545909,-113.509971,Sports Bar
Rosedale Estates,53.54252150000001,-113.51131954864,The Commodore,53.54098325554542,-113.50538472315523,Diner
Rosedale Estates,53.54252150000001,-113.51131954864,The Creperie,53.54357402338591,-113.49762566223269,Creperie
Rosedale Estates,53.54252150000001,-113.51131954864,Japanese Village,53.544000780894024,-113.49945961937706,Asian Restaurant
Rosedale Estates,53.54252150000001,-113.51131954864,Starbucks,53.545881,-113.513615,Coffee Shop
Rosedale Estates,53.54252150000001,-113.51131954864,Caffè Sorrentino,53.55123415017668,-113.50823735097067,Coffee Shop
Rosedale Estates,53.54252150000001,-113.51131954864,On The Rocks,53.541093189356886,-113.5246114517633,Karaoke Bar
Rosedale Estates,53.54252150000001,-113.51131954864,Grant Notley Park,53.53982853318292,-113.52334966913624,Park
Rosedale Estates,53.54252150000001,-113.51131954864,Petro-Canada,53.538406,-113.50876,Fuel Station
Rosedale Estates,53.54252150000001,-113.51131954864,Co Co Di,53.540929,-113.518766,Mediterranean Restaurant
Rosedale Estates,53.54252150000001,-113.51131954864,Baijiu,53.54592123134112,-113.49908741015577,Bar
Rosedale Estates,53.54252150000001,-113.51131954864,7-Eleven,53.54120954164245,-113.51430147886276,Convenience Store
Rosedale Estates,53.54252150000001,-113.51131954864,Subway,53.54589462,-113.5165482,Sandwich Spot
Rosedale Estates,53.54252150000001,-113.51131954864,Coast Edmonton Plaza Hotel (Coast Edmonton Plaza Hotel by APA),53.54217576848977,-113.500990879422,Hotel
Rosedale Estates,53.54252150000001,-113.51131954864,Kelly's Pub,53.54223011981734,-113.49879547199069,Pub
Rosedale Estates,53.54252150000001,-113.51131954864,Shoppers Drug Mart,53.540571,-113.499946,Pharmacy
Rosedale Estates,53.54252150000001,-113.51131954864,O2's Jasper Ave,53.541042877653176,-113.51196704059267,Bar
Rosedale Estates,53.54252150000001,-113.51131954864,Oodle Noodle,53.541109,-113.507655,Asian Restaurant
Rosedale Estates,53.54252150000001,-113.51131954864,London Drugs,53.54748435298766,-113.5236213950718,Pharmacy
Rosedale Estates,53.54252150000001,-113.51131954864,Safeway Oliver,53.547432,-113.518189,Grocery Store
Rosedale Estates,53.54252150000001,-113.51131954864,Tim Hortons,53.54588413171711,-113.5110008425545,Coffee Shop
Rosedale Estates,53.54252150000001,-113.51131954864,Starbucks,53.547432,-113.518189,Coffee Shop
Rosedale Estates,53.54252150000001,-113.51131954864,Metro Billiards,53.544343501845624,-113.50333051848554,Pool Hall
Rosedale Estates,53.54252150000001,-113.51131954864,Swiss Chalet,53.54184862921181,-113.50875385935672,Restaurant
Rosedale Estates,53.54252150000001,-113.51131954864,La Shish Taouk,53.5413,-113.52541,Mediterranean Restaurant
Rosedale Estates,53.54252150000001,-113.51131954864,SUBWAY,53.543193006800465,-113.49769246547316,Sandwich Spot
Rosedale Estates,53.54252150000001,-113.51131954864,MRKT,53.54095722922541,-113.50220562561299,Sandwich Spot
Rosedale Estates,53.54252150000001,-113.51131954864,Wendy's,53.5458761133536,-113.51095037302002,Fast Food Restaurant
Rosedale Estates,53.54252150000001,-113.51131954864,Subway,53.54097213274157,-113.50108586182242,Sandwich Spot
Rosedale Estates,53.54252150000001,-113.51131954864,Subway,53.54611764627621,-113.50159171904082,Sandwich Spot
Rosedale Estates,53.54252150000001,-113.51131954864,Pizza Hut Edmonton,53.54586989692775,-113.52016746258299,Pizzeria
Rosedale Estates,53.54252150000001,-113.51131954864,Viphalay,53.537146142604264,-113.50232106342591,Thai Restaurant
Rosedale Estates,53.54252150000001,-113.51131954864,Liquor Depot - Oliver Village,53.54689043742799,-113.51681840811348,Liquor Store
Southbrook,52.234571,-113.7913369,The Gifted Basket,52.23586869051665,-113.79160165786743,Gift Store
Southbrook,52.234571,-113.7913369,Starbucks,52.231007,-113.800007,Coffee Shop
Southbrook,52.234571,-113.7913369,Q Nails,52.23585214875223,-113.78031211717267,Cosmetics Store
Southbrook,52.234571,-113.7913369,Banana Blinds,52.235106509347936,-113.80374670028685,Furniture and Home Store
Southbrook,52.234571,-113.7913369,Westerner Campground,52.22884859688212,-113.80236127938487,Campground
Sunnybrook,53.1939082,-114.2000839,Pair-A-Dice Trikes,53.193243059919844,-114.20073509216309,Motorcycle Dealership
Three Mile Bend Recreation Area,52.3019,-113.7817,Three Mile Bend,52.29973851369239,-113.78259762960515,Dog Park
Three Mile Bend Recreation Area,52.3019,-113.7817,Civic Yards,52.30335210273319,-113.78909237300861,Monument
Timber Ridge,51.18051235,-114.26397812305729,Ribbons2U,51.18083607020832,-114.26034450531006,Print Store
Timberlands,52.2753058,-113.74931278721974,Esso,52.273491,-113.7475,Fuel Station
Timberlands,52.2753058,-113.74931278721974,Hipposica's Mailbox,52.278973,-113.75893,Tourist Information and Service
Timberstone,52.2758062,-113.756136,Esso,52.273491,-113.7475,Fuel Station
Timberstone,52.2758062,-113.756136,Hipposica's Mailbox,52.278973,-113.75893,Tourist Information and Service
Timberstone,52.2758062,-113.756136,McDonald's,52.273082727890525,-113.76829846004644,Fast Food Restaurant
Timberstone,52.2758062,-113.756136,Jersville,52.269337,-113.76331,Beer Bar
Timberstone,52.2758062,-113.756136,michael o'brien wetland,52.274169,-113.770413,Scenic Lookout
Vanier Woods,52.23127535,-113.75365490034184,HomeSense,52.2302285,-113.7668896,Department Store
Waskasoo,52.21965535,-113.8174250434918,Costco Wholesale,52.21311569951376,-113.8191055467707,Warehouse or Wholesale Store
Waskasoo,52.21965535,-113.8174250434918,Galaxy Cinemas,52.21164747404368,-113.8198682901063,Movie Theater
Waskasoo,52.21965535,-113.8174250434918,Shell,52.217101,-113.816923,Fuel Station
Waskasoo,52.21965535,-113.8174250434918,Tim Hortons,52.216014,-113.8129157,Coffee Shop
Waskasoo,52.21965535,-113.8174250434918,Costco Gasoline,52.21312646767369,-113.81672322839482,Fuel Station
Waskasoo,52.21965535,-113.8174250434918,7-Eleven,52.21604805012229,-113.81263279226414,Convenience Store
Waskasoo,52.21965535,-113.8174250434918,Petro-Canada,52.21835969580124,-113.81283755115565,Fuel Station
Waskasoo,52.21965535,-113.8174250434918,Staples,52.2110023498535,-113.817924499511,Office Supply Store
Waskasoo,52.21965535,-113.8174250434918,Carl's Jr.,52.212349,-113.815355,Fast Food Restaurant
Waskasoo,52.21965535,-113.8174250434918,Shell,52.21704049795705,-113.81305185631575,Fuel Station
Waskasoo,52.21965535,-113.8174250434918,McDonald's,52.222298718922595,-113.81402547365663,Fast Food Restaurant
Waskasoo,52.21965535,-113.8174250434918,Holiday Inn,52.21383796563207,-113.81220954194971,Hotel
Waskasoo,52.21965535,-113.8174250434918,Ricky's (Gasoline Alley),52.212956161245174,-113.81553137454563,American Restaurant
Waskasoo,52.21965535,-113.8174250434918,Burger Baron,52.2166,-113.813033,Burger Joint
Waskasoo,52.21965535,-113.8174250434918,Howard Johnson,52.218795917273795,-113.81229304790628,Hotel
Waskasoo,52.21965535,-113.8174250434918,A&W,52.217969,-113.81291,Fast Food Restaurant
Waskasoo,52.21965535,-113.8174250434918,Sweet Market Esso,52.214317,-113.816724,Diner
Waskasoo,52.21965535,-113.8174250434918,UFA Cardlock Gas Alley,52.21528950604569,-113.8121163638901,Fuel Station
Waskasoo,52.21965535,-113.8174250434918,UFA Convenience Store,52.215132,-113.812367,Fuel Station
Waskasoo,52.21965535,-113.8174250434918,Gasoline Alley Harley Davidson,52.21426315850672,-113.81311077455887,Motorcycle Dealership
Waskasoo,52.21965535,-113.8174250434918,Fatburger,52.21260219370359,-113.81499730041435,Burger Joint
Waskasoo,52.21965535,-113.8174250434918,Esso,52.21604045756337,-113.81280675712307,Fuel Station
Waskasoo,52.21965535,-113.8174250434918,Dollarama,52.211161,-113.818742,Discount Store
Waskasoo,52.21965535,-113.8174250434918,Humpty's Classic Cafe,52.21110284328461,-113.81504952907562,American Restaurant
Waskasoo,52.21965535,-113.8174250434918,McDonald's,52.21497945841722,-113.81245998135988,Fast Food Restaurant
West Park,53.01337635,-112.86735163194916,Starbucks,53.019884,-112.85978,Coffee Shop
West Park,53.01337635,-112.86735163194916,Real Canadian Superstore,53.01620322651209,-112.86417961120605,Grocery Store
West Park,53.01337635,-112.86735163194916,Staples,53.0198631286621,-112.862045288085,Office Supply Store
West Park,53.01337635,-112.86735163194916,Starbucks,53.017976,-112.873115,Coffee Shop
West Park,53.01337635,-112.86735163194916,Subway,53.01849365,-112.863533,Sandwich Spot
West Park,53.01337635,-112.86735163194916,Canadian Tire,53.0158573614,-112.8573764199,Hardware Store
West Park,53.01337635,-112.86735163194916,Shoppers Drug Mart,53.015845,-112.85602,Pharmacy
West Park,53.01337635,-112.86735163194916,Fatburger,53.01846845401297,-112.86015317790987,Burger Joint
West Park,53.01337635,-112.86735163194916,Wendy’s,53.018705753025664,-112.85580472787842,Fast Food Restaurant
West Park,53.01337635,-112.86735163194916,Safeway Canada,53.019506233564606,-112.85966412709678,Supermarket
West Park,53.01337635,-112.86735163194916,Ramada Camrose,53.014892,-112.865484,Hotel
West Park,53.01337635,-112.86735163194916,Super 8 Motel Camrose,53.01614,-112.8673074802663,Hotel
West Park,53.01337635,-112.86735163194916,MR MIKES SteakhouseCasual,53.016845,-112.865656,Food Truck
West Park,53.01337635,-112.86735163194916,Tim Hortons,53.01871712311645,-112.85575479269028,Coffee Shop
West Park,53.01337635,-112.86735163194916,Taco Bell,53.018409701280305,-112.8620565914477,Fast Food Restaurant
Westerner Park,52.2270819,-113.8068761428047,Second Cup Café,52.2335313,-113.8146333,Café
Westerner Park,52.2270819,-113.8068761428047,Fionn MacCool's Red Deer,52.23406358264258,-113.81299234879569,Irish Pub
Westerner Park,52.2270819,-113.8068761428047,Westerner Park,52.22711882814784,-113.8078065212831,Arts and Entertainment
Westerner Park,52.2270819,-113.8068761428047,Enmax Centrium,52.228230231962634,-113.80594179689855,Stadium
Westerner Park,52.2270819,-113.8068761428047,Montana's,52.23426937293919,-113.81455314976029,Restaurant
Westerner Park,52.2270819,-113.8068761428047,PetSmart,52.231311,-113.817408,Pet Supplies Store
Westerner Park,52.2270819,-113.8068761428047,Dairy Queen,52.234611248836316,-113.81302043795586,Ice Cream Parlor
Westerner Park,52.2270819,-113.8068761428047,Best Buy,52.2314763,-113.8180328,Electronics Store
Westerner Park,52.2270819,-113.8068761428047,Old Navy,52.232404061553225,-113.81647785941766,Clothing Store
Westerner Park,52.2270819,-113.8068761428047,A&W,52.233874,-113.814613,Fast Food Restaurant
Westerner Park,52.2270819,-113.8068761428047,McDonald's,52.222298718922595,-113.81402547365663,Fast Food Restaurant
Westerner Park,52.2270819,-113.8068761428047,Winners,52.231385331080546,-113.81630315689274,Department Store
Westerner Park,52.2270819,-113.8068761428047,Bed Bath & Beyond,52.231617634924,-113.8188824209,Furniture and Home Store
Westerner Park,52.2270819,-113.8068761428047,Howard Johnson,52.218795917273795,-113.81229304790628,Hotel
Westlake,55.2245338,-118.8126004,Subway,55.22701158798239,-118.80235017317068,Sandwich Spot
Westlake,55.2245338,-118.8126004,Days Inn,55.2279782356187,-118.80165509748048,Hotel
Westlake,55.2245338,-118.8126004,U. F. A.,55.2224051,-118.8006165,Pet Supplies Store
Westlake,55.2245338,-118.8126004,UFA Grande Prairie Farm Store,55.22177794115483,-118.80031049251556,Fuel Station
Woodlea,45.3205386,-75.78500059820267,Frank's Catering And Baked Goods,45.3241235198088,-75.7780149557865,Sandwich Spot
Woodlea,45.3205386,-75.78500059820267,Cozmos Souvlaki,45.32618,-75.779955,Greek Restaurant
Woodlea,45.3205386,-75.78500059820267,Authentic Vietnamese Pho,45.32517330287662,-75.77942542121129,Vietnamese Restaurant
Woodlea,45.3205386,-75.78500059820267,Metro,45.324583151432705,-75.78001722693529,Supermarket
Woodlea,45.3205386,-75.78500059820267,Tim Hortons,45.32549946262167,-75.77951453626156,Coffee Shop
Woodlea,45.3205386,-75.78500059820267,Subway,45.324474369311496,-75.77917928425711,Sandwich Spot
Woodlea,45.3205386,-75.78500059820267,Shoppers Drug Mart,45.32820611105709,-75.77972052552279,Pharmacy
Woodlea,45.3205386,-75.78500059820267,Brass Monkey,45.325311,-75.779826,Pool Hall
Woodlea,45.3205386,-75.78500059820267,Shoppers Drug Mart,45.328235,-75.779556,Pharmacy
Woodlea,45.3205386,-75.78500059820267,Greenbank Huntclub Centre,45.325656180131816,-75.78246843715694,Shopping Mall
Woodlea,45.3205386,-75.78500059820267,Delightful Tastes,45.32524007620207,-75.78008457575916,Bakery
Woodlea,45.3205386,-75.78500059820267,New Hong Shing,45.32403285776232,-75.77805906475736,Chinese Restaurant
Woodlea,45.3205386,-75.78500059820267,Circle K,45.3237882,-75.7773955,Convenience Store
Woodlea,45.3205386,-75.78500059820267,Ben Franklin Park (Superdome),45.323364567321846,-75.77456493632668,Park
